{
"type": "FeatureCollection",
"crs": { "type": "name", "properties": { "name": "urn:ogc:def:crs:OGC:1.3:CRS84" } },
                                                                                
"features": [
{ "type": "Feature", "properties": { "Seed": 14, "S_Curve": 56, "Team": "Albany", "Type": "University", "State": "NY", "Proj_W_L": "21-8", "Bid": 0.450000, "Auto_Bid": 0.450000, "1_Seed": 0, "InputJoin": "Albany University NY", "AddrsGoog": "University at Albany, 1400 Washington Avenue, Albany, NY 12222, USA", "lat": 42.686744, "lng": -73.822852, "LocType_Ty": "APPROXIMATE--", "Type_1": "university,establishment" }, "geometry": { "type": "Point", "coordinates": [ -73.8229, 42.6867 ] } },
{ "type": "Feature", "properties": { "Seed": 1, "S_Curve": 3, "Team": "Arizona", "Type": "University", "State": "Arizona", "Proj_W_L": "28-3", "Bid": 1.000000, "Auto_Bid": 0.540000, "1_Seed": 0, "InputJoin": "Arizona University Arizona", "AddrsGoog": "The University of Arizona, Tucson, AZ 85721, USA", "lat": 32.231885, "lng": -110.950109, "LocType_Ty": "APPROXIMATE--", "Type_1": "university,establishment" }, "geometry": { "type": "Point", "coordinates": [ -110.9501, 32.2319 ] } },
{ "type": "Feature", "properties": { "Seed": 4, "S_Curve": 16, "Team": "Arkansas", "Type": "University", "State": "Arkansas", "Proj_W_L": "24-7", "Bid": 1.000000, "Auto_Bid": 0.060000, "1_Seed": 0, "InputJoin": "Arkansas University Arkansas", "AddrsGoog": "University of Arkansas, Fayetteville, AR 72701, USA", "lat": 36.067832, "lng": -94.173655, "LocType_Ty": "APPROXIMATE--", "Type_1": "university,establishment" }, "geometry": { "type": "Point", "coordinates": [ -94.1737, 36.0678 ] } },
{ "type": "Feature", "properties": { "Seed": 3, "S_Curve": 10, "Team": "Baylor", "Type": "University", "State": "TX", "Proj_W_L": "23-8", "Bid": 1.000000, "Auto_Bid": 0.150000, "1_Seed": 0, "InputJoin": "Baylor University TX", "AddrsGoog": "Baylor University, 1311 South 5th Street, Waco, TX 76706, USA", "lat": 31.548220, "lng": -97.118438, "LocType_Ty": "APPROXIMATE--", "Type_1": "university,establishment" }, "geometry": { "type": "Point", "coordinates": [ -97.1184, 31.5482 ] } },
{ "type": "Feature", "properties": { "Seed": 11, "S_Curve": 43, "Team": "Boise State", "Type": "University", "State": "ID", "Proj_W_L": "24-7", "Bid": 0.720000, "Auto_Bid": 0.270000, "1_Seed": 0, "InputJoin": "Boise State University ID", "AddrsGoog": "Boise State University, 1910 University Drive, Boise, ID 83725, USA", "lat": 43.603600, "lng": -116.208707, "LocType_Ty": "APPROXIMATE--", "Type_1": "university,establishment" }, "geometry": { "type": "Point", "coordinates": [ -116.2087, 43.6036 ] } },
{ "type": "Feature", "properties": { "Seed": 12, "S_Curve": 48, "Team": "Buffalo", "Type": "University", "State": "NY", "Proj_W_L": "21-9", "Bid": 0.590000, "Auto_Bid": 0.360000, "1_Seed": 0, "InputJoin": "Buffalo University NY", "AddrsGoog": "State University of New York, University at Buffalo School of Public Health and Health Professions, Main St # 250, Buffalo, NY 14214, USA", "lat": 42.953373, "lng": -78.818301, "LocType_Ty": "APPROXIMATE--", "Type_1": "university,point_of_interest,establishment" }, "geometry": { "type": "Point", "coordinates": [ -78.8183, 42.9534 ] } },
{ "type": "Feature", "properties": { "Seed": 6, "S_Curve": 23, "Team": "Butler", "Type": "University", "State": "IN", "Proj_W_L": "21-10", "Bid": 1.000000, "Auto_Bid": 0.140000, "1_Seed": 0, "InputJoin": "Butler University IN", "AddrsGoog": "Butler University, 4600 Sunset Avenue, Indianapolis, IN 46208, USA", "lat": 39.839601, "lng": -86.169720, "LocType_Ty": "APPROXIMATE--", "Type_1": "university,establishment" }, "geometry": { "type": "Point", "coordinates": [ -86.1697, 39.8396 ] } },
{ "type": "Feature", "properties": { "Seed": 10, "S_Curve": 39, "Team": "BYU", "Type": "University", "State": "UT", "Proj_W_L": "23-8", "Bid": 0.850000, "Auto_Bid": 0.200000, "1_Seed": 0, "InputJoin": "BYU University UT", "AddrsGoog": "Brigham Young University, Provo, UT 84602, USA", "lat": 40.251844, "lng": -111.649316, "LocType_Ty": "APPROXIMATE--", "Type_1": "university,point_of_interest,establishment" }, "geometry": { "type": "Point", "coordinates": [ -111.6493, 40.2518 ] } },
{ "type": "Feature", "properties": { "Seed": 8, "S_Curve": 30, "Team": "Cincinnati", "Type": "University", "State": "OH", "Proj_W_L": "21-10", "Bid": 0.850000, "Auto_Bid": 0.140000, "1_Seed": 0, "InputJoin": "Cincinnati University OH", "AddrsGoog": "The Athenaeum of Ohio, 6616 Beechmont Avenue, Cincinnati, OH 45230, USA", "lat": 39.082478, "lng": -84.371291, "LocType_Ty": "APPROXIMATE--", "Type_1": "university,establishment" }, "geometry": { "type": "Point", "coordinates": [ -84.3713, 39.0825 ] } },
{ "type": "Feature", "properties": { "Seed": 15, "S_Curve": 62, "Team": "Coastal Carolina", "Type": "University", "State": "SC", "Proj_W_L": "21-9", "Bid": 0.440000, "Auto_Bid": 0.440000, "1_Seed": 0, "InputJoin": "Coastal Carolina University SC", "AddrsGoog": "Coastal Carolina University, 100 Chanticleer Dr E, Conway, SC 29528", "lat": 33.794966, "lng": -79.011730, "LocType_Ty": "APPROXIMATE--", "Type_1": "university,establishment" }, "geometry": { "type": "Point", "coordinates": [ -79.0117, 33.795 ] } },
{ "type": "Feature", "properties": { "Seed": 0, "S_Curve": 0, "Team": "Colorado St", "Type": "University", "State": "CO", "Proj_W_L": "25-6", "Bid": 0.480000, "Auto_Bid": 0.170000, "1_Seed": 0, "InputJoin": "Colorado St University CO", "AddrsGoog": "Colorado State University, Fort Collins, CO 80523, USA", "lat": 40.573436, "lng": -105.086547, "LocType_Ty": "APPROXIMATE--", "Type_1": "university,establishment" }, "geometry": { "type": "Point", "coordinates": [ -105.0865, 40.5734 ] } },
{ "type": "Feature", "properties": { "Seed": 0, "S_Curve": 0, "Team": "Connecticut", "Type": "University", "State": "Connecticut", "Proj_W_L": "18-12", "Bid": 0.490000, "Auto_Bid": 0.270000, "1_Seed": 0, "InputJoin": "Connecticut University Connecticut", "AddrsGoog": "University of Connecticut, Storrs, CT 06269, USA", "lat": 41.807741, "lng": -72.253980, "LocType_Ty": "APPROXIMATE--", "Type_1": "university,establishment" }, "geometry": { "type": "Point", "coordinates": [ -72.254, 41.8077 ] } },
{ "type": "Feature", "properties": { "Seed": 11, "S_Curve": 42, "Team": "Davidson", "Type": "University", "State": "NC", "Proj_W_L": "22-7", "Bid": 0.690000, "Auto_Bid": 0.200000, "1_Seed": 0, "InputJoin": "Davidson University NC", "AddrsGoog": "Davidson College, Davidson, NC 28036, USA", "lat": 35.501225, "lng": -80.838926, "LocType_Ty": "APPROXIMATE--", "Type_1": "university,point_of_interest,establishment" }, "geometry": { "type": "Point", "coordinates": [ -80.8389, 35.5012 ] } },
{ "type": "Feature", "properties": { "Seed": 9, "S_Curve": 35, "Team": "Dayton", "Type": "University", "State": "OH", "Proj_W_L": "24-6", "Bid": 0.830000, "Auto_Bid": 0.180000, "1_Seed": 0, "InputJoin": "Dayton University OH", "AddrsGoog": "University of Dayton, 300 College Park, Dayton, OH 45469, USA", "lat": 39.740662, "lng": -84.179242, "LocType_Ty": "APPROXIMATE--", "Type_1": "university,establishment" }, "geometry": { "type": "Point", "coordinates": [ -84.1792, 39.7407 ] } },
{ "type": "Feature", "properties": { "Seed": 2, "S_Curve": 5, "Team": "Duke", "Type": "University", "State": "NC", "Proj_W_L": "27-4", "Bid": 1.000000, "Auto_Bid": 0.370000, "1_Seed": 0, "InputJoin": "Duke University NC", "AddrsGoog": "Duke University, Durham, NC 27708, USA", "lat": 36.001426, "lng": -78.938229, "LocType_Ty": "APPROXIMATE--", "Type_1": "establishment" }, "geometry": { "type": "Point", "coordinates": [ -78.9382, 36.0014 ] } },
{ "type": "Feature", "properties": { "Seed": 14, "S_Curve": 58, "Team": "E Washingtn", "Type": "University", "State": "WA", "Proj_W_L": "22-9", "Bid": 0.480000, "Auto_Bid": 0.480000, "1_Seed": 0, "InputJoin": "E Washingtn University WA", "AddrsGoog": "University of Washington, Seattle, WA, USA", "lat": 47.655335, "lng": -122.303520, "LocType_Ty": "APPROXIMATE--", "Type_1": "university,establishment" }, "geometry": { "type": "Point", "coordinates": [ -122.3035, 47.6553 ] } },
{ "type": "Feature", "properties": { "Seed": 7, "S_Curve": 25, "Team": "Georgetown", "Type": "University", "State": "DC", "Proj_W_L": "20-9", "Bid": 1.000000, "Auto_Bid": 0.120000, "1_Seed": 0, "InputJoin": "Georgetown University DC", "AddrsGoog": "Georgetown University, 3700 O Street Northwest, Washington, DC 20057, USA", "lat": 38.907609, "lng": -77.072259, "LocType_Ty": "APPROXIMATE--", "Type_1": "university,establishment" }, "geometry": { "type": "Point", "coordinates": [ -77.0723, 38.9076 ] } },
{ "type": "Feature", "properties": { "Seed": 14, "S_Curve": 55, "Team": "Georgia St", "Type": "University", "State": "GA", "Proj_W_L": "22-9", "Bid": 0.550000, "Auto_Bid": 0.550000, "1_Seed": 0, "InputJoin": "Georgia St University GA", "AddrsGoog": "Georgia State University, Atlanta, GA 30302, USA", "lat": 33.753068, "lng": -84.385282, "LocType_Ty": "APPROXIMATE--", "Type_1": "university,establishment" }, "geometry": { "type": "Point", "coordinates": [ -84.3853, 33.7531 ] } },
{ "type": "Feature", "properties": { "Seed": 10, "S_Curve": 38, "Team": "Georgia", "Type": "University", "State": "Georgia", "Proj_W_L": "20-10", "Bid": 0.720000, "Auto_Bid": 0.020000, "1_Seed": 0, "InputJoin": "Georgia University Georgia", "AddrsGoog": "Georgia College, 231 Oconee River Greenway, Milledgeville, GA 31061, USA", "lat": 33.081995, "lng": -83.230898, "LocType_Ty": "APPROXIMATE--", "Type_1": "university,establishment" }, "geometry": { "type": "Point", "coordinates": [ -83.2309, 33.082 ] } },
{ "type": "Feature", "properties": { "Seed": 2, "S_Curve": 8, "Team": "Gonzaga", "Type": "University", "State": "WA", "Proj_W_L": "29-2", "Bid": 1.000000, "Auto_Bid": 0.710000, "1_Seed": 0, "InputJoin": "Gonzaga University WA", "AddrsGoog": "Gonzaga University, 502 East Boone Avenue, Spokane, WA 99202, USA", "lat": 47.667233, "lng": -117.402877, "LocType_Ty": "APPROXIMATE--", "Type_1": "university,establishment" }, "geometry": { "type": "Point", "coordinates": [ -117.4029, 47.6672 ] } },
{ "type": "Feature", "properties": { "Seed": 12, "S_Curve": 49, "Team": "Harvard", "Type": "University", "State": "MA", "Proj_W_L": "22-6", "Bid": 0.750000, "Auto_Bid": 0.740000, "1_Seed": 0, "InputJoin": "Harvard University MA", "AddrsGoog": "Harvard University, Cambridge, MA 02138, USA", "lat": 42.377003, "lng": -71.116660, "LocType_Ty": "APPROXIMATE--", "Type_1": "university,establishment" }, "geometry": { "type": "Point", "coordinates": [ -71.1167, 42.377 ] } },
{ "type": "Feature", "properties": { "Seed": 0, "S_Curve": 0, "Team": "Indiana", "Type": "University", "State": "Indiana", "Proj_W_L": "19-12", "Bid": 0.410000, "Auto_Bid": 0.020000, "1_Seed": 0, "InputJoin": "Indiana University Indiana", "AddrsGoog": "Indiana University, 107 South Indiana Avenue, Bloomington, IN 47405, USA", "lat": 39.169136, "lng": -86.514905, "LocType_Ty": "APPROXIMATE--", "Type_1": "establishment" }, "geometry": { "type": "Point", "coordinates": [ -86.5149, 39.1691 ] } },
{ "type": "Feature", "properties": { "Seed": 12, "S_Curve": 50, "Team": "Iona", "Type": "University", "State": "NY", "Proj_W_L": "24-7", "Bid": 0.550000, "Auto_Bid": 0.400000, "1_Seed": 0, "InputJoin": "Iona University NY", "AddrsGoog": "Iona College, 715 North Avenue, New Rochelle, NY 10801, USA", "lat": 40.926610, "lng": -73.786035, "LocType_Ty": "APPROXIMATE--", "Type_1": "establishment" }, "geometry": { "type": "Point", "coordinates": [ -73.786, 40.9266 ] } },
{ "type": "Feature", "properties": { "Seed": 3, "S_Curve": 9, "Team": "Iowa State", "Type": "University", "State": "IA", "Proj_W_L": "22-8", "Bid": 1.000000, "Auto_Bid": 0.180000, "1_Seed": 0, "InputJoin": "Iowa State University IA", "AddrsGoog": "Iowa State University, Ames, IA 50011, USA", "lat": 42.026619, "lng": -93.646465, "LocType_Ty": "APPROXIMATE--", "Type_1": "university,establishment" }, "geometry": { "type": "Point", "coordinates": [ -93.6465, 42.0266 ] } },
{ "type": "Feature", "properties": { "Seed": 6, "S_Curve": 24, "Team": "Iowa", "Type": "University", "State": "Iowa", "Proj_W_L": "21-10", "Bid": 0.970000, "Auto_Bid": 0.070000, "1_Seed": 0, "InputJoin": "Iowa University Iowa", "AddrsGoog": "The University of Iowa, Iowa City, IA 52242, USA", "lat": 41.662696, "lng": -91.554900, "LocType_Ty": "APPROXIMATE--", "Type_1": "university,establishment" }, "geometry": { "type": "Point", "coordinates": [ -91.5549, 41.6627 ] } },
{ "type": "Feature", "properties": { "Seed": 2, "S_Curve": 7, "Team": "Kansas", "Type": "University", "State": "Kansas", "Proj_W_L": "24-7", "Bid": 1.000000, "Auto_Bid": 0.240000, "1_Seed": 0, "InputJoin": "Kansas University Kansas", "AddrsGoog": "University of Kansas, 1450 Jayhawk Boulevard, Lawrence, KS 66045, USA", "lat": 38.954344, "lng": -95.255796, "LocType_Ty": "APPROXIMATE--", "Type_1": "university,establishment" }, "geometry": { "type": "Point", "coordinates": [ -95.2558, 38.9543 ] } },
{ "type": "Feature", "properties": { "Seed": 1, "S_Curve": 1, "Team": "Kentucky", "Type": "University", "State": "Kentucky", "Proj_W_L": "31-0", "Bid": 1.000000, "Auto_Bid": 0.790000, "1_Seed": 0, "InputJoin": "Kentucky University Kentucky", "AddrsGoog": "University of Kentucky, Lexington, KY 40506, USA", "lat": 38.030651, "lng": -84.503970, "LocType_Ty": "APPROXIMATE--", "Type_1": "university,establishment" }, "geometry": { "type": "Point", "coordinates": [ -84.504, 38.0307 ] } },
{ "type": "Feature", "properties": { "Seed": 4, "S_Curve": 14, "Team": "Louisville", "Type": "University", "State": "KY", "Proj_W_L": "24-7", "Bid": 1.000000, "Auto_Bid": 0.120000, "1_Seed": 0, "InputJoin": "Louisville University KY", "AddrsGoog": "University of Louisville, Louisville, KY 40292, USA", "lat": 38.210188, "lng": -85.759045, "LocType_Ty": "APPROXIMATE--", "Type_1": "university,establishment" }, "geometry": { "type": "Point", "coordinates": [ -85.759, 38.2102 ] } },
{ "type": "Feature", "properties": { "Seed": 7, "S_Curve": 26, "Team": "LSU", "Type": "University", "State": "LA", "Proj_W_L": "22-9", "Bid": 0.770000, "Auto_Bid": 0.020000, "1_Seed": 0, "InputJoin": "LSU University LA", "AddrsGoog": "Louisiana State University, Baton Rouge, LA 70803, USA", "lat": 30.413258, "lng": -91.180002, "LocType_Ty": "APPROXIMATE--", "Type_1": "university,establishment" }, "geometry": { "type": "Point", "coordinates": [ -91.18, 30.4133 ] } },
{ "type": "Feature", "properties": { "Seed": 4, "S_Curve": 13, "Team": "Maryland", "Type": "University", "State": "Maryland", "Proj_W_L": "26-5", "Bid": 1.000000, "Auto_Bid": 0.060000, "1_Seed": 0, "InputJoin": "Maryland University Maryland", "AddrsGoog": "University of Maryland, College Park, MD 20742, USA", "lat": 38.986918, "lng": -76.942554, "LocType_Ty": "APPROXIMATE--", "Type_1": "university,establishment" }, "geometry": { "type": "Point", "coordinates": [ -76.9426, 38.9869 ] } },
{ "type": "Feature", "properties": { "Seed": 8, "S_Curve": 31, "Team": "Michigan St", "Type": "University", "State": "MI", "Proj_W_L": "20-11", "Bid": 0.890000, "Auto_Bid": 0.100000, "1_Seed": 0, "InputJoin": "Michigan St University MI", "AddrsGoog": "Michigan State University, 220 Trowbridge Rd, East Lansing, MI 48824, USA", "lat": 42.701848, "lng": -84.482172, "LocType_Ty": "APPROXIMATE--", "Type_1": "university,establishment" }, "geometry": { "type": "Point", "coordinates": [ -84.4822, 42.7018 ] } },
{ "type": "Feature", "properties": { "Seed": 9, "S_Curve": 36, "Team": "Mississippi", "Type": "University", "State": "Mississippi", "Proj_W_L": "21-10", "Bid": 0.800000, "Auto_Bid": 0.030000, "1_Seed": 0, "InputJoin": "Mississippi University Mississippi", "AddrsGoog": "University of Mississippi, University, MS 38677, USA", "lat": 34.364732, "lng": -89.538443, "LocType_Ty": "APPROXIMATE--", "Type_1": "university,establishment" }, "geometry": { "type": "Point", "coordinates": [ -89.5384, 34.3647 ] } },
{ "type": "Feature", "properties": { "Seed": 13, "S_Curve": 54, "Team": "Murray St", "Type": "University", "State": "OK", "Proj_W_L": "26-4", "Bid": 0.520000, "Auto_Bid": 0.490000, "1_Seed": 0, "InputJoin": "Murray St University OK", "AddrsGoog": "Murray State College, 1 Murray Campus Drive, Tishomingo, OK 73460, USA", "lat": 34.222344, "lng": -96.676509, "LocType_Ty": "APPROXIMATE--", "Type_1": "university,establishment" }, "geometry": { "type": "Point", "coordinates": [ -96.6765, 34.2223 ] } },
{ "type": "Feature", "properties": { "Seed": 5, "S_Curve": 19, "Team": "N Carolina", "Type": "University", "State": "NC", "Proj_W_L": "22-9", "Bid": 1.000000, "Auto_Bid": 0.140000, "1_Seed": 0, "InputJoin": "N Carolina University NC", "AddrsGoog": "University of North Carolina Wilmington, 601 South College Road, Wilmington, NC 28403, USA", "lat": 34.225775, "lng": -77.869774, "LocType_Ty": "APPROXIMATE--", "Type_1": "university,establishment" }, "geometry": { "type": "Point", "coordinates": [ -77.8698, 34.2258 ] } },
{ "type": "Feature", "properties": { "Seed": 16, "S_Curve": 63, "Team": "N Florida", "Type": "University", "State": "FL", "Proj_W_L": "21-11", "Bid": 0.600000, "Auto_Bid": 0.600000, "1_Seed": 0, "InputJoin": "N Florida University FL", "AddrsGoog": "North Florida Avenue, Florida, USA", "lat": 28.066586, "lng": -82.459339, "LocType_Ty": "GEOMETRIC_CENTER--", "Type_1": "route" }, "geometry": { "type": "Point", "coordinates": [ -82.4593, 28.0666 ] } },
{ "type": "Feature", "properties": { "Seed": 6, "S_Curve": 21, "Team": "N Iowa", "Type": "University", "State": "IA", "Proj_W_L": "27-3", "Bid": 1.000000, "Auto_Bid": 0.350000, "1_Seed": 0, "InputJoin": "N Iowa University IA", "AddrsGoog": "The University of Iowa, Iowa City, IA 52242, USA", "lat": 41.662696, "lng": -91.554900, "LocType_Ty": "APPROXIMATE--", "Type_1": "university,establishment" }, "geometry": { "type": "Point", "coordinates": [ -91.5549, 41.6627 ] } },
{ "type": "Feature", "properties": { "Seed": 15, "S_Curve": 61, "Team": "N Mex State", "Type": "University", "State": "NM", "Proj_W_L": "21-10", "Bid": 0.700000, "Auto_Bid": 0.700000, "1_Seed": 0, "InputJoin": "N Mex State University NM", "AddrsGoog": "The University of New Mexico, Albuquerque, NM 87131, USA", "lat": 35.084319, "lng": -106.619781, "LocType_Ty": "APPROXIMATE--", "Type_1": "university,establishment" }, "geometry": { "type": "Point", "coordinates": [ -106.6198, 35.0843 ] } },
{ "type": "Feature", "properties": { "Seed": 15, "S_Curve": 59, "Team": "NC Central", "Type": "University", "State": "NC", "Proj_W_L": "24-6", "Bid": 0.630000, "Auto_Bid": 0.630000, "1_Seed": 0, "InputJoin": "NC Central University NC", "AddrsGoog": "Duke University Central Campus, Durham, NC 27705, USA", "lat": 36.005187, "lng": -78.928276, "LocType_Ty": "APPROXIMATE--", "Type_1": "university,establishment" }, "geometry": { "type": "Point", "coordinates": [ -78.9283, 36.0052 ] } },
{ "type": "Feature", "properties": { "Seed": 9, "S_Curve": 33, "Team": "NC State", "Type": "University", "State": "NC", "Proj_W_L": "19-12", "Bid": 0.850000, "Auto_Bid": 0.010000, "1_Seed": 0, "InputJoin": "NC State University NC", "AddrsGoog": "North Carolina State University, Raleigh, NC 27695, USA", "lat": 35.784663, "lng": -78.682095, "LocType_Ty": "APPROXIMATE--", "Type_1": "university,establishment" }, "geometry": { "type": "Point", "coordinates": [ -78.6821, 35.7847 ] } },
{ "type": "Feature", "properties": { "Seed": 5, "S_Curve": 17, "Team": "Notre Dame", "Type": "University", "State": "IN", "Proj_W_L": "25-6", "Bid": 1.000000, "Auto_Bid": 0.060000, "1_Seed": 0, "InputJoin": "Notre Dame University IN", "AddrsGoog": "University of Notre Dame, Notre Dame, IN 46556, USA", "lat": 41.705572, "lng": -86.235339, "LocType_Ty": "APPROXIMATE--", "Type_1": "university,establishment" }, "geometry": { "type": "Point", "coordinates": [ -86.2353, 41.7056 ] } },
{ "type": "Feature", "properties": { "Seed": 7, "S_Curve": 28, "Team": "Ohio State", "Type": "University", "State": "OH", "Proj_W_L": "22-9", "Bid": 0.920000, "Auto_Bid": 0.240000, "1_Seed": 0, "InputJoin": "Ohio State University OH", "AddrsGoog": "The Ohio State University, Columbus, OH 43210, USA", "lat": 40.014190, "lng": -83.030914, "LocType_Ty": "APPROXIMATE--", "Type_1": "university,establishment" }, "geometry": { "type": "Point", "coordinates": [ -83.0309, 40.0142 ] } },
{ "type": "Feature", "properties": { "Seed": 11, "S_Curve": 41, "Team": "Oklahoma St", "Type": "University", "State": "OK", "Proj_W_L": "18-12", "Bid": 0.700000, "Auto_Bid": 0.040000, "1_Seed": 0, "InputJoin": "Oklahoma St University OK", "AddrsGoog": "North University Avenue, Oklahoma City, OK 73114, USA", "lat": 35.568477, "lng": -97.536190, "LocType_Ty": "GEOMETRIC_CENTER--", "Type_1": "route" }, "geometry": { "type": "Point", "coordinates": [ -97.5362, 35.5685 ] } },
{ "type": "Feature", "properties": { "Seed": 3, "S_Curve": 12, "Team": "Oklahoma", "Type": "University", "State": "Oklahoma", "Proj_W_L": "21-9", "Bid": 1.000000, "Auto_Bid": 0.200000, "1_Seed": 0, "InputJoin": "Oklahoma University Oklahoma", "AddrsGoog": "Oklahoma City University, 2501 North Blackwelder Avenue, Oklahoma City, OK 73106, USA", "lat": 35.494825, "lng": -97.541974, "LocType_Ty": "APPROXIMATE--", "Type_1": "university,establishment" }, "geometry": { "type": "Point", "coordinates": [ -97.542, 35.4948 ] } },
{ "type": "Feature", "properties": { "Seed": 14, "S_Curve": 57, "Team": "Old Dominion", "Type": "University", "State": "va", "Proj_W_L": "24-6", "Bid": 0.370000, "Auto_Bid": 0.260000, "1_Seed": 0, "InputJoin": "Old Dominion University virginia", "AddrsGoog": "Old Dominion University, 5115 Hampton Boulevard, Norfolk, VA 23529, USA", "lat": 36.886015, "lng": -76.304393, "LocType_Ty": "APPROXIMATE--", "Type_1": "university,establishment" }, "geometry": { "type": "Point", "coordinates": [ -76.3044, 36.886 ] } },
{ "type": "Feature", "properties": { "Seed": 8, "S_Curve": 29, "Team": "Oregon", "Type": "University", "State": "Oregon", "Proj_W_L": "23-8", "Bid": 0.890000, "Auto_Bid": 0.030000, "1_Seed": 0, "InputJoin": "Oregon University Oregon", "AddrsGoog": "University of Oregon, 1585 East 13th Avenue, Eugene, OR 97403, USA", "lat": 44.044830, "lng": -123.072605, "LocType_Ty": "APPROXIMATE--", "Type_1": "university,establishment" }, "geometry": { "type": "Point", "coordinates": [ -123.0726, 44.0448 ] } },
{ "type": "Feature", "properties": { "Seed": 5, "S_Curve": 18, "Team": "Providence", "Type": "University", "State": "RI", "Proj_W_L": "21-10", "Bid": 0.990000, "Auto_Bid": 0.060000, "1_Seed": 0, "InputJoin": "Providence University RI", "AddrsGoog": "Rhode Island School of Design, 2 College Street, Providence, RI 02903, USA", "lat": 41.825843, "lng": -71.407744, "LocType_Ty": "APPROXIMATE--", "Type_1": "university,establishment" }, "geometry": { "type": "Point", "coordinates": [ -71.4077, 41.8258 ] } },
{ "type": "Feature", "properties": { "Seed": 12, "S_Curve": 47, "Team": "Purdue", "Type": "University", "State": "IN", "Proj_W_L": "20-11", "Bid": 0.480000, "Auto_Bid": 0.030000, "1_Seed": 0, "InputJoin": "Purdue University IN", "AddrsGoog": "Purdue University, 610 Purdue Mall, West Lafayette, IN 47907, USA", "lat": 40.423705, "lng": -86.921195, "LocType_Ty": "APPROXIMATE--", "Type_1": "university,establishment" }, "geometry": { "type": "Point", "coordinates": [ -86.9212, 40.4237 ] } },
{ "type": "Feature", "properties": { "Seed": 15, "S_Curve": 60, "Team": "S Dakota St", "Type": "University", "State": "SD", "Proj_W_L": "21-9", "Bid": 0.440000, "Auto_Bid": 0.440000, "1_Seed": 0, "InputJoin": "S Dakota St University SD", "AddrsGoog": "SDSU, 100 Administration Lane, Brookings, SD 57006, USA", "lat": 44.318573, "lng": -96.782122, "LocType_Ty": "APPROXIMATE--", "Type_1": "university,establishment" }, "geometry": { "type": "Point", "coordinates": [ -96.7821, 44.3186 ] } },
{ "type": "Feature", "properties": { "Seed": 5, "S_Curve": 20, "Team": "S Methodist", "Type": "University", "State": "TX", "Proj_W_L": "24-6", "Bid": 1.000000, "Auto_Bid": 0.320000, "1_Seed": 0, "InputJoin": "S Methodist University TX", "AddrsGoog": "Southern Methodist University, Dallas, TX, USA", "lat": 32.841218, "lng": -96.784518, "LocType_Ty": "APPROXIMATE--", "Type_1": "university,establishment" }, "geometry": { "type": "Point", "coordinates": [ -96.7845, 32.8412 ] } },
{ "type": "Feature", "properties": { "Seed": 0, "S_Curve": 0, "Team": "Sam Hous St", "Type": "University", "State": "tx", "Proj_W_L": "24-7", "Bid": 0.390000, "Auto_Bid": 0.390000, "1_Seed": 0, "InputJoin": "Sam Hous St University tx", "AddrsGoog": "Sam Houston State University, 1806 Avenue J, Huntsville, TX 77340, USA", "lat": 30.713945, "lng": -95.548303, "LocType_Ty": "APPROXIMATE--", "Type_1": "university,establishment" }, "geometry": { "type": "Point", "coordinates": [ -95.5483, 30.7139 ] } },
{ "type": "Feature", "properties": { "Seed": 10, "S_Curve": 40, "Team": "San Diego St", "Type": "University", "State": "CA", "Proj_W_L": "24-7", "Bid": 0.790000, "Auto_Bid": 0.270000, "1_Seed": 0, "InputJoin": "San Diego St University CA", "AddrsGoog": "University Avenue, San Diego, CA, USA", "lat": 32.774806, "lng": -117.071236, "LocType_Ty": "GEOMETRIC_CENTER--", "Type_1": "route" }, "geometry": { "type": "Point", "coordinates": [ -117.0712, 32.7748 ] } },
{ "type": "Feature", "properties": { "Seed": 8, "S_Curve": 32, "Team": "St Johns", "Type": "University", "State": "MD", "Proj_W_L": "21-10", "Bid": 0.900000, "Auto_Bid": 0.040000, "1_Seed": 0, "InputJoin": "St Johns University MD", "AddrsGoog": "St. John's College, 60 College Avenue, Annapolis, MD 21401, USA", "lat": 38.981963, "lng": -76.491536, "LocType_Ty": "APPROXIMATE--", "Type_1": "establishment" }, "geometry": { "type": "Point", "coordinates": [ -76.4915, 38.982 ] } },
{ "type": "Feature", "properties": { "Seed": 13, "S_Curve": 51, "Team": "Ste F Austin", "Type": "University", "State": "TX", "Proj_W_L": "27-4", "Bid": 0.610000, "Auto_Bid": 0.560000, "1_Seed": 0, "InputJoin": "Ste F Austin University TX", "AddrsGoog": "Holy Cross Institute at St. Edwards University, 3001 South Congress Avenue, Austin, TX 78704, USA", "lat": 30.232930, "lng": -97.758007, "LocType_Ty": "APPROXIMATE--", "Type_1": "university,point_of_interest,establishment" }, "geometry": { "type": "Point", "coordinates": [ -97.758, 30.2329 ] } },
{ "type": "Feature", "properties": { "Seed": 11, "S_Curve": 45, "Team": "Temple", "Type": "University", "State": "PA", "Proj_W_L": "21-10", "Bid": 0.700000, "Auto_Bid": 0.070000, "1_Seed": 0, "InputJoin": "Temple University PA", "AddrsGoog": "Temple University, Temple University - Center City Campus, 1515 Market Street, Philadelphia, PA 19102, USA", "lat": 39.952937, "lng": -75.165941, "LocType_Ty": "APPROXIMATE--", "Type_1": "university,point_of_interest,establishment" }, "geometry": { "type": "Point", "coordinates": [ -75.1659, 39.9529 ] } },
{ "type": "Feature", "properties": { "Seed": 11, "S_Curve": 44, "Team": "Texas A&M", "Type": "University", "State": "TX", "Proj_W_L": "21-9", "Bid": 0.640000, "Auto_Bid": 0.020000, "1_Seed": 0, "InputJoin": "Texas A&M University TX", "AddrsGoog": "Texas A&M University, 401 Joe Routt Boulevard, College Station, TX 77843, USA", "lat": 30.614919, "lng": -96.342316, "LocType_Ty": "APPROXIMATE--", "Type_1": "university,establishment" }, "geometry": { "type": "Point", "coordinates": [ -96.3423, 30.6149 ] } },
{ "type": "Feature", "properties": { "Seed": 12, "S_Curve": 46, "Team": "Texas", "Type": "University", "State": "Texas", "Proj_W_L": "19-12", "Bid": 0.580000, "Auto_Bid": 0.100000, "1_Seed": 0, "InputJoin": "Texas University Texas", "AddrsGoog": "Concordia University Texas, 11400 Concordia University Drive, Austin, TX 78726, USA", "lat": 30.420143, "lng": -97.839575, "LocType_Ty": "APPROXIMATE--", "Type_1": "university,establishment" }, "geometry": { "type": "Point", "coordinates": [ -97.8396, 30.4201 ] } },
{ "type": "Feature", "properties": { "Seed": 10, "S_Curve": 37, "Team": "Tulsa", "Type": "University", "State": "OK", "Proj_W_L": "22-8", "Bid": 0.950000, "Auto_Bid": 0.110000, "1_Seed": 0, "InputJoin": "Tulsa University OK", "AddrsGoog": "The University of Tulsa, 800 South Tucker Drive, Tulsa, OK 74104, USA", "lat": 36.150944, "lng": -95.943637, "LocType_Ty": "APPROXIMATE--", "Type_1": "university,establishment" }, "geometry": { "type": "Point", "coordinates": [ -95.9436, 36.1509 ] } },
{ "type": "Feature", "properties": { "Seed": 16, "S_Curve": 64, "Team": "TX Southern", "Type": "University", "State": "TX", "Proj_W_L": "19-12", "Bid": 0.520000, "Auto_Bid": 0.520000, "1_Seed": 0, "InputJoin": "TX Southern University TX", "AddrsGoog": "Texas Southern University, 3100 Cleburne Street, Houston, TX 77004, USA", "lat": 29.721763, "lng": -95.360612, "LocType_Ty": "APPROXIMATE--", "Type_1": "university,establishment" }, "geometry": { "type": "Point", "coordinates": [ -95.3606, 29.7218 ] } },
{ "type": "Feature", "properties": { "Seed": 0, "S_Curve": 0, "Team": "UCLA", "Type": "University", "State": "ca", "Proj_W_L": "19-12", "Bid": 0.390000, "Auto_Bid": 0.020000, "1_Seed": 0, "InputJoin": "UCLA University ca", "AddrsGoog": "University of California, Los Angeles, Los Angeles, CA 90095, USA", "lat": 34.068921, "lng": -118.445181, "LocType_Ty": "APPROXIMATE--", "Type_1": "university,point_of_interest,establishment" }, "geometry": { "type": "Point", "coordinates": [ -118.4452, 34.0689 ] } },
{ "type": "Feature", "properties": { "Seed": 4, "S_Curve": 15, "Team": "Utah", "Type": "University", "State": "Utah", "Proj_W_L": "24-6", "Bid": 1.000000, "Auto_Bid": 0.350000, "1_Seed": 0, "InputJoin": "Utah University Utah", "AddrsGoog": "The University of Utah, 201 Presidents Circle, Salt Lake City, UT 84112, USA", "lat": 40.764937, "lng": -111.842102, "LocType_Ty": "APPROXIMATE--", "Type_1": "university,establishment" }, "geometry": { "type": "Point", "coordinates": [ -111.8421, 40.7649 ] } },
{ "type": "Feature", "properties": { "Seed": 13, "S_Curve": 52, "Team": "Valparaiso", "Type": "University", "State": "IN", "Proj_W_L": "26-5", "Bid": 0.510000, "Auto_Bid": 0.480000, "1_Seed": 0, "InputJoin": "Valparaiso University IN", "AddrsGoog": "Valparaiso University, 1700 Chapel Drive, Valparaiso, IN 46383, USA", "lat": 41.464277, "lng": -87.042360, "LocType_Ty": "APPROXIMATE--", "Type_1": "university,establishment" }, "geometry": { "type": "Point", "coordinates": [ -87.0424, 41.4643 ] } },
{ "type": "Feature", "properties": { "Seed": 7, "S_Curve": 27, "Team": "VCU", "Type": "University", "State": "VA", "Proj_W_L": "22-9", "Bid": 0.970000, "Auto_Bid": 0.300000, "1_Seed": 0, "InputJoin": "VCU University VA", "AddrsGoog": "VCU, Virginia Commonwealth University, 301 West Main Street, Richmond, VA 23220, USA", "lat": 37.544645, "lng": -77.447990, "LocType_Ty": "APPROXIMATE--", "Type_1": "university,point_of_interest,establishment" }, "geometry": { "type": "Point", "coordinates": [ -77.448, 37.5446 ] } },
{ "type": "Feature", "properties": { "Seed": 0, "S_Curve": 0, "Team": "Vermont", "Type": "University", "State": "Vermont", "Proj_W_L": "17-12", "Bid": 0.350000, "Auto_Bid": 0.350000, "1_Seed": 0, "InputJoin": "Vermont University Vermont", "AddrsGoog": "University of Vermont, Burlington, VT 05405, USA", "lat": 44.477853, "lng": -73.196464, "LocType_Ty": "APPROXIMATE--", "Type_1": "university,establishment" }, "geometry": { "type": "Point", "coordinates": [ -73.1965, 44.4779 ] } },
{ "type": "Feature", "properties": { "Seed": 1, "S_Curve": 2, "Team": "Villanova", "Type": "University", "State": "PA", "Proj_W_L": "29-2", "Bid": 1.000000, "Auto_Bid": 0.530000, "1_Seed": 0, "InputJoin": "Villanova University PA", "AddrsGoog": "Villanova University, 800 East Lancaster Avenue, Villanova, PA 19085, USA", "lat": 40.034901, "lng": -75.337350, "LocType_Ty": "APPROXIMATE--", "Type_1": "university,establishment" }, "geometry": { "type": "Point", "coordinates": [ -75.3374, 40.0349 ] } },
{ "type": "Feature", "properties": { "Seed": 1, "S_Curve": 4, "Team": "Virginia", "Type": "University", "State": "Virginia", "Proj_W_L": "28-2", "Bid": 1.000000, "Auto_Bid": 0.280000, "1_Seed": 0, "InputJoin": "Virginia University Virginia", "AddrsGoog": "University of Virginia, University of Virginia, 1400 University Ave, Charlottesville, VA 22903, USA", "lat": 38.034028, "lng": -78.500055, "LocType_Ty": "APPROXIMATE--", "Type_1": "university,point_of_interest,establishment" }, "geometry": { "type": "Point", "coordinates": [ -78.5001, 38.034 ] } },
{ "type": "Feature", "properties": { "Seed": 6, "S_Curve": 22, "Team": "W Virginia", "Type": "University", "State": "WV", "Proj_W_L": "23-8", "Bid": 1.000000, "Auto_Bid": 0.080000, "1_Seed": 0, "InputJoin": "W Virginia University WV", "AddrsGoog": "West Virginia University, Morgantown, WV 26506, USA", "lat": 39.636140, "lng": -79.955936, "LocType_Ty": "APPROXIMATE--", "Type_1": "university,establishment" }, "geometry": { "type": "Point", "coordinates": [ -79.9559, 39.6361 ] } },
{ "type": "Feature", "properties": { "Seed": 3, "S_Curve": 11, "Team": "Wichita St", "Type": "University", "State": "KS", "Proj_W_L": "27-3", "Bid": 1.000000, "Auto_Bid": 0.530000, "1_Seed": 0, "InputJoin": "Wichita St University KS", "AddrsGoog": "West University Street, Wichita, KS 67209, USA", "lat": 37.677030, "lng": -97.464970, "LocType_Ty": "GEOMETRIC_CENTER--", "Type_1": "route" }, "geometry": { "type": "Point", "coordinates": [ -97.465, 37.677 ] } },
{ "type": "Feature", "properties": { "Seed": 0, "S_Curve": 0, "Team": "WI-Grn Bay", "Type": "University", "State": "WI", "Proj_W_L": "23-7", "Bid": 0.400000, "Auto_Bid": 0.380000, "1_Seed": 0, "InputJoin": "WI-Grn Bay University WI", "AddrsGoog": "University of Wisconsin-Green Bay, 2420 Nicolet Drive, Green Bay, WI 54311, USA", "lat": 44.532302, "lng": -87.921352, "LocType_Ty": "APPROXIMATE--", "Type_1": "university,establishment" }, "geometry": { "type": "Point", "coordinates": [ -87.9214, 44.5323 ] } },
{ "type": "Feature", "properties": { "Seed": 2, "S_Curve": 6, "Team": "Wisconsin", "Type": "University", "State": "Wisconsin", "Proj_W_L": "27-4", "Bid": 1.000000, "Auto_Bid": 0.430000, "1_Seed": 0, "InputJoin": "Wisconsin University Wisconsin", "AddrsGoog": "University-Wisconsin, 5249 East Terrace Drive, Madison, WI 53718, USA", "lat": 43.144731, "lng": -89.289400, "LocType_Ty": "APPROXIMATE--", "Type_1": "university,point_of_interest,establishment" }, "geometry": { "type": "Point", "coordinates": [ -89.2894, 43.1447 ] } },
{ "type": "Feature", "properties": { "Seed": 13, "S_Curve": 53, "Team": "Wofford", "Type": "University", "State": "SC", "Proj_W_L": "25-6", "Bid": 0.500000, "Auto_Bid": 0.410000, "1_Seed": 0, "InputJoin": "Wofford University SC", "AddrsGoog": "Wofford College, 429 North Church Street, Spartanburg, SC 29303, USA", "lat": 34.958876, "lng": -81.934516, "LocType_Ty": "APPROXIMATE--", "Type_1": "establishment" }, "geometry": { "type": "Point", "coordinates": [ -81.9345, 34.9589 ] } },
{ "type": "Feature", "properties": { "Seed": 9, "S_Curve": 34, "Team": "Xavier", "Type": "University", "State": "OH", "Proj_W_L": "19-12", "Bid": 0.750000, "Auto_Bid": 0.090000, "1_Seed": 0, "InputJoin": "Xavier University OH", "AddrsGoog": "Xavier University, 3800 Victory Parkway, Cincinnati, OH 45207, USA", "lat": 39.149091, "lng": -84.474037, "LocType_Ty": "APPROXIMATE--", "Type_1": "university,establishment" }, "geometry": { "type": "Point", "coordinates": [ -84.474, 39.1491 ] } }
]
}
